"TOA5","CR300Series_2","CR300","21245","CR300.Std.10.02","CPU:300_program_may29.CR300","51993","seconds"
"TIMESTAMP","RECORD","BattV","PTemp_C","T109_C","NMEASent(1)","NMEASent(2)","Latitude_A","Latitude_B","Longitude_A","Longitude_B","Speed","Course","MagVar","FixQual","NumSats","Altitude","PPS","SecSinceGPRMC","GPSReady","MaxClockChange","NumClockChange"
"TS","RN","Volts","Deg C","Deg C","","","degrees","minutes","degrees","minutes","knots","degrees","degrees","code","count","meters","microseconds","seconds","count","milliseconds","count"
"","","Smp","Smp","Smp","Smp","Smp","Smp","Smp","Smp","Smp","Smp","Smp","Smp","Smp","Smp","Smp","Smp","Smp","Smp","Smp","Smp"
"2024-05-30 19:22:07",2516,11.93,26.41,23.15,"$GPRMC,192206,A,4530.6037,N,07334.1611,W,000.0,354.8,300524,014.7,W","$GPGGA,192206,4530.6037,N,07334.1611,W,1,05,1.5,71.3,M,-32.8,M,,",45,30.6,-73,-34.16,0,354.8,-14.7,1,5,71.3,0,0.911,5,7999,1
"2024-05-30 19:22:08",2517,11.92,26.4,23.14,"$GPRMC,192207,A,4530.6033,N,07334.1608,W,000.0,354.8,300524,014.7,W","$GPGGA,192207,4530.6033,N,07334.1608,W,1,05,1.4,70.3,M,-32.8,M,,",45,30.6,-73,-34.16,0,354.8,-14.7,1,5,70.3,0,0.907,6,7999,1
"2024-05-30 19:22:09",2518,11.92,26.42,23.14,"$GPRMC,192208,A,4530.6027,N,07334.1605,W,000.0,354.8,300524,014.7,W","$GPGGA,192208,4530.6027,N,07334.1605,W,1,05,1.4,69.1,M,-32.8,M,,",45,30.6,-73,-34.16,0,354.8,-14.7,1,5,69.1,0,0.885,7,7999,1
"2024-05-30 19:22:10",2519,11.92,26.41,23.14,"$GPRMC,192209,A,4530.6022,N,07334.1601,W,000.0,354.8,300524,014.7,W","$GPGGA,192209,4530.6022,N,07334.1601,W,1,05,1.4,68.3,M,-32.8,M,,",45,30.6,-73,-34.16,0,354.8,-14.7,1,5,68.3,0,0.907,8,7999,1
"2024-05-30 19:22:11",2520,11.92,26.42,23.14,"$GPRMC,192210,A,4530.6020,N,07334.1596,W,000.0,354.8,300524,014.7,W","$GPGGA,192210,4530.6020,N,07334.1596,W,1,05,1.4,68.0,M,-32.8,M,,",45,30.6,-73,-34.16,0,354.8,-14.7,1,5,68,0,0.907,9,7999,1
"2024-05-30 19:22:12",2521,11.92,26.42,23.14,"$GPRMC,192211,A,4530.6017,N,07334.1594,W,000.0,354.8,300524,014.7,W","$GPGGA,192211,4530.6017,N,07334.1594,W,1,05,1.4,67.7,M,-32.8,M,,",45,30.6,-73,-34.16,0,354.8,-14.7,1,5,67.7,0,0.897,10,7999,1
"2024-05-30 19:22:13",2522,11.92,26.42,23.13,"$GPRMC,192212,A,4530.6013,N,07334.1590,W,000.0,354.8,300524,014.7,W","$GPGGA,192212,4530.6013,N,07334.1590,W,1,05,1.4,67.3,M,-32.8,M,,",45,30.6,-73,-34.16,0,354.8,-14.7,1,5,67.3,0,0.907,10,7999,1
"2024-05-30 19:22:14",2523,11.92,26.41,23.11,"$GPRMC,192213,A,4530.6011,N,07334.1587,W,000.0,354.8,300524,014.7,W","$GPGGA,192213,4530.6011,N,07334.1587,W,1,05,1.4,66.9,M,-32.8,M,,",45,30.6,-73,-34.16,0,354.8,-14.7,1,5,66.9,0,0.887,10,7999,1
"2024-05-30 19:22:15",2524,11.92,26.4,23.12,"$GPRMC,192214,A,4530.6008,N,07334.1585,W,000.0,354.8,300524,014.7,W","$GPGGA,192214,4530.6008,N,07334.1585,W,1,05,1.4,66.5,M,-32.8,M,,",45,30.6,-73,-34.16,0,354.8,-14.7,1,5,66.5,0,0.897,10,7999,1
"2024-05-30 19:22:16",2525,11.92,26.41,23.12,"$GPRMC,192215,A,4530.6005,N,07334.1584,W,000.0,354.8,300524,014.7,W","$GPGGA,192215,4530.6005,N,07334.1584,W,1,05,1.4,66.3,M,-32.8,M,,",45,30.6,-73,-34.16,0,354.8,-14.7,1,5,66.3,0,0.907,10,7999,1
"2024-05-30 19:22:17",2526,11.92,26.41,23.13,"$GPRMC,192216,A,4530.6000,N,07334.1582,W,000.0,354.8,300524,014.7,W","$GPGGA,192216,4530.6000,N,07334.1582,W,1,05,1.4,66.0,M,-32.8,M,,",45,30.6,-73,-34.16,0,354.8,-14.7,1,5,66,0,0.905,10,7999,1
"2024-05-30 19:22:18",2527,11.92,26.4,23.13,"$GPRMC,192217,A,4530.5997,N,07334.1580,W,000.0,354.8,300524,014.7,W","$GPGGA,192217,4530.5997,N,07334.1580,W,1,05,1.4,65.8,M,-32.8,M,,",45,30.6,-73,-34.16,0,354.8,-14.7,1,5,65.8,0,0.897,10,7999,1
"2024-05-30 19:22:19",2528,11.92,26.42,23.14,"$GPRMC,192218,A,4530.5995,N,07334.1580,W,000.0,354.8,300524,014.7,W","$GPGGA,192218,4530.5995,N,07334.1580,W,1,05,1.4,65.8,M,-32.8,M,,",45,30.6,-73,-34.16,0,354.8,-14.7,1,5,65.8,0,0.904,10,7999,1
"2024-05-30 19:22:20",2529,11.92,26.42,23.16,"$GPRMC,192219,A,4530.5993,N,07334.1577,W,000.0,354.8,300524,014.7,W","$GPGGA,192219,4530.5993,N,07334.1577,W,1,05,1.4,65.6,M,-32.8,M,,",45,30.6,-73,-34.16,0,354.8,-14.7,1,5,65.6,0,0.904,10,7999,1
"2024-05-30 19:22:21",2530,11.93,26.42,23.17,"$GPRMC,192220,A,4530.5991,N,07334.1575,W,000.0,354.8,300524,014.7,W","$GPGGA,192220,4530.5991,N,07334.1575,W,1,05,1.4,65.3,M,-32.8,M,,",45,30.6,-73,-34.16,0,354.8,-14.7,1,5,65.3,0,0.906,10,7999,1
"2024-05-30 19:22:22",2531,11.92,26.41,23.16,"$GPRMC,192221,A,4530.5990,N,07334.1574,W,000.0,354.8,300524,014.7,W","$GPGGA,192221,4530.5990,N,07334.1574,W,1,05,1.4,65.0,M,-32.8,M,,",45,30.6,-73,-34.16,0,354.8,-14.7,1,5,65,0,0.904,10,7999,1
"2024-05-30 19:22:23",2532,11.92,26.42,23.15,"$GPRMC,192222,A,4530.5988,N,07334.1574,W,000.0,354.8,300524,014.7,W","$GPGGA,192222,4530.5988,N,07334.1574,W,1,05,1.4,65.0,M,-32.8,M,,",45,30.6,-73,-34.16,0,354.8,-14.7,1,5,65,0,0.896,10,7999,1
"2024-05-30 19:22:24",2533,11.92,26.39,23.14,"$GPRMC,192223,A,4530.5987,N,07334.1572,W,000.0,354.8,300524,014.7,W","$GPGGA,192223,4530.5987,N,07334.1572,W,1,05,1.4,64.9,M,-32.8,M,,",45,30.6,-73,-34.16,0,354.8,-14.7,1,5,64.9,0,0.857,10,7999,1
"2024-05-30 19:22:25",2534,11.92,26.4,23.17,"$GPRMC,192224,A,4530.5986,N,07334.1571,W,000.0,354.8,300524,014.7,W","$GPGGA,192224,4530.5986,N,07334.1571,W,1,05,1.4,64.8,M,-32.8,M,,",45,30.6,-73,-34.16,0,354.8,-14.7,1,5,64.8,0,0.902,10,7999,1
"2024-05-30 19:22:26",2535,11.92,26.41,23.15,"$GPRMC,192225,A,4530.5984,N,07334.1571,W,000.0,354.8,300524,014.7,W","$GPGGA,192225,4530.5984,N,07334.1571,W,1,05,1.4,64.8,M,-32.8,M,,",45,30.6,-73,-34.16,0,354.8,-14.7,1,5,64.8,0,0.91,10,7999,1
"2024-05-30 19:22:27",2536,11.92,26.41,23.15,"$GPRMC,192226,A,4530.5989,N,07334.1570,W,000.0,354.8,300524,014.7,W","$GPGGA,192226,4530.5989,N,07334.1570,W,1,05,1.4,63.8,M,-32.8,M,,",45,30.6,-73,-34.16,0,354.8,-14.7,1,5,63.8,0,0.904,10,7999,1
"2024-05-30 19:22:28",2537,11.93,26.42,23.15,"$GPRMC,192227,A,4530.5991,N,07334.1570,W,000.0,354.8,300524,014.7,W","$GPGGA,192227,4530.5991,N,07334.1570,W,1,05,1.4,63.1,M,-32.8,M,,",45,30.6,-73,-34.16,0,354.8,-14.7,1,5,63.1,0,0.901,10,7999,1
"2024-05-30 19:22:29",2538,11.92,26.43,23.15,"$GPRMC,192228,A,4530.5995,N,07334.1568,W,000.0,354.8,300524,014.7,W","$GPGGA,192228,4530.5995,N,07334.1568,W,1,05,1.4,62.3,M,-32.8,M,,",45,30.6,-73,-34.16,0,354.8,-14.7,1,5,62.3,0,0.888,10,7999,1
"2024-05-30 19:22:30",2539,11.92,26.42,23.13,"$GPRMC,192229,A,4530.5995,N,07334.1566,W,000.0,354.8,300524,014.7,W","$GPGGA,192229,4530.5995,N,07334.1566,W,1,05,1.4,62.3,M,-32.8,M,,",45,30.6,-73,-34.16,0,354.8,-14.7,1,5,62.3,0,0.862,10,7999,1
"2024-05-30 19:22:31",2540,11.92,26.42,23.12,"$GPRMC,192230,A,4530.5996,N,07334.1565,W,000.0,354.8,300524,014.7,W","$GPGGA,192230,4530.5996,N,07334.1565,W,1,05,1.4,62.2,M,-32.8,M,,",45,30.6,-73,-34.16,0,354.8,-14.7,1,5,62.2,0,0.872,10,7999,1
"2024-05-30 19:22:32",2541,11.92,26.43,23.13,"$GPRMC,192231,A,4530.5997,N,07334.1567,W,000.0,354.8,300524,014.7,W","$GPGGA,192231,4530.5997,N,07334.1567,W,1,05,1.4,62.2,M,-32.8,M,,",45,30.6,-73,-34.16,0,354.8,-14.7,1,5,62.2,0,0.878,10,7999,1
"2024-05-30 19:22:33",2542,11.92,26.43,23.15,"$GPRMC,192232,A,4530.5996,N,07334.1566,W,000.0,354.8,300524,014.7,W","$GPGGA,192232,4530.5996,N,07334.1566,W,1,05,1.4,62.2,M,-32.8,M,,",45,30.6,-73,-34.16,0,354.8,-14.7,1,5,62.2,0,0.89,10,7999,1
"2024-05-30 19:22:34",2543,11.93,26.43,23.17,"$GPRMC,192233,A,4530.5996,N,07334.1566,W,000.0,354.8,300524,014.7,W","$GPGGA,192233,4530.5996,N,07334.1566,W,1,05,1.4,62.2,M,-32.8,M,,",45,30.6,-73,-34.16,0,354.8,-14.7,1,5,62.2,0,0.856,10,7999,1
"2024-05-30 19:22:35",2544,11.93,26.42,23.19,"$GPRMC,192234,A,4530.5997,N,07334.1565,W,000.0,354.8,300524,014.7,W","$GPGGA,192234,4530.5997,N,07334.1565,W,1,05,1.4,62.2,M,-32.8,M,,",45,30.6,-73,-34.16,0,354.8,-14.7,1,5,62.2,0,0.9,10,7999,1
"2024-05-30 19:22:36",2545,11.92,26.43,23.19,"$GPRMC,192235,A,4530.6000,N,07334.1566,W,000.0,354.8,300524,014.7,W","$GPGGA,192235,4530.6000,N,07334.1566,W,1,05,1.4,62.2,M,-32.8,M,,",45,30.6,-73,-34.16,0,354.8,-14.7,1,5,62.2,0,0.892,10,7999,1
"2024-05-30 19:22:37",2546,11.92,26.43,23.2,"$GPRMC,192236,A,4530.6001,N,07334.1565,W,000.0,354.8,300524,014.7,W","$GPGGA,192236,4530.6001,N,07334.1565,W,1,05,1.4,62.3,M,-32.8,M,,",45,30.6,-73,-34.16,0,354.8,-14.7,1,5,62.3,0,0.902,10,7999,1
"2024-05-30 19:22:38",2547,11.92,26.45,23.19,"$GPRMC,192237,A,4530.6003,N,07334.1563,W,000.0,354.8,300524,014.7,W","$GPGGA,192237,4530.6003,N,07334.1563,W,1,05,1.4,62.2,M,-32.8,M,,",45,30.6,-73,-34.16,0,354.8,-14.7,1,5,62.2,0,0.88,10,7999,1
"2024-05-30 19:22:39",2548,11.92,26.44,23.21,"$GPRMC,192238,A,4530.6006,N,07334.1562,W,000.0,354.8,300524,014.7,W","$GPGGA,192238,4530.6006,N,07334.1562,W,1,05,1.4,62.3,M,-32.8,M,,",45,30.6,-73,-34.16,0,354.8,-14.7,1,5,62.3,0,0.848,10,7999,1
"2024-05-30 19:22:40",2549,11.92,26.45,23.22,"$GPRMC,192239,A,4530.6009,N,07334.1563,W,000.0,354.8,300524,014.7,W","$GPGGA,192239,4530.6009,N,07334.1563,W,1,05,1.4,62.3,M,-32.8,M,,",45,30.6,-73,-34.16,0,354.8,-14.7,1,5,62.3,0,0.902,10,7999,1
"2024-05-30 19:22:41",2550,11.92,26.43,23.23,"$GPRMC,192240,A,4530.6012,N,07334.1564,W,000.0,354.8,300524,014.7,W","$GPGGA,192240,4530.6012,N,07334.1564,W,1,05,1.4,62.3,M,-32.8,M,,",45,30.6,-73,-34.16,0,354.8,-14.7,1,5,62.3,0,0.88,10,7999,1
"2024-05-30 19:22:42",2551,11.92,26.44,23.24,"$GPRMC,192241,A,4530.6014,N,07334.1565,W,000.0,354.8,300524,014.7,W","$GPGGA,192241,4530.6014,N,07334.1565,W,1,05,1.4,62.3,M,-32.8,M,,",45,30.6,-73,-34.16,0,354.8,-14.7,1,5,62.3,0,0.902,10,7999,1
"2024-05-30 19:22:43",2552,11.93,26.44,23.23,"$GPRMC,192242,A,4530.6016,N,07334.1567,W,000.0,354.8,300524,014.7,W","$GPGGA,192242,4530.6016,N,07334.1567,W,1,05,1.4,62.3,M,-32.8,M,,",45,30.6,-73,-34.16,0,354.8,-14.7,1,5,62.3,0,0.912,10,7999,1
"2024-05-30 19:22:44",2553,11.92,26.44,23.22,"$GPRMC,192243,A,4530.6017,N,07334.1567,W,000.0,354.8,300524,014.7,W","$GPGGA,192243,4530.6017,N,07334.1567,W,1,05,1.4,62.3,M,-32.8,M,,",45,30.6,-73,-34.16,0,354.8,-14.7,1,5,62.3,0,0.856,10,7999,1
"2024-05-30 19:22:45",2554,11.92,26.44,23.21,"$GPRMC,192244,A,4530.6018,N,07334.1569,W,000.0,354.8,300524,014.7,W","$GPGGA,192244,4530.6018,N,07334.1569,W,1,05,1.4,62.3,M,-32.8,M,,",45,30.6,-73,-34.16,0,354.8,-14.7,1,5,62.3,0,0.87,10,7999,1
"2024-05-30 19:22:46",2555,11.92,26.44,23.22,"$GPRMC,192245,A,4530.6019,N,07334.1572,W,000.0,354.8,300524,014.7,W","$GPGGA,192245,4530.6019,N,07334.1572,W,1,05,1.4,62.4,M,-32.8,M,,",45,30.6,-73,-34.16,0,354.8,-14.7,1,5,62.4,0,0.881,10,7999,1
"2024-05-30 19:22:47",2556,11.92,26.45,23.22,"$GPRMC,192246,A,4530.6018,N,07334.1574,W,000.0,354.8,300524,014.7,W","$GPGGA,192246,4530.6018,N,07334.1574,W,1,05,1.4,62.5,M,-32.8,M,,",45,30.6,-73,-34.16,0,354.8,-14.7,1,5,62.5,0,0.865,10,7999,1
"2024-05-30 19:22:48",2557,11.92,26.44,23.23,"$GPRMC,192247,A,4530.6017,N,07334.1572,W,000.0,354.8,300524,014.7,W","$GPGGA,192247,4530.6017,N,07334.1572,W,1,05,1.4,62.5,M,-32.8,M,,",45,30.6,-73,-34.16,0,354.8,-14.7,1,5,62.5,0,0.88,10,7999,1
"2024-05-30 19:22:49",2558,11.92,26.43,23.24,"$GPRMC,192248,A,4530.6018,N,07334.1573,W,000.0,354.8,300524,014.7,W","$GPGGA,192248,4530.6018,N,07334.1573,W,1,05,1.4,62.5,M,-32.8,M,,",45,30.6,-73,-34.16,0,354.8,-14.7,1,5,62.5,0,0.872,10,7999,1
"2024-05-30 19:22:50",2559,11.92,26.46,23.22,"$GPRMC,192249,A,4530.6019,N,07334.1577,W,000.0,354.8,300524,014.7,W","$GPGGA,192249,4530.6019,N,07334.1577,W,1,05,1.4,62.5,M,-32.8,M,,",45,30.6,-73,-34.16,0,354.8,-14.7,1,5,62.5,0,0.893,10,7999,1
"2024-05-30 19:22:51",2560,11.92,26.45,23.22,"$GPRMC,192250,A,4530.6020,N,07334.1585,W,000.0,354.8,300524,014.7,W","$GPGGA,192250,4530.6020,N,07334.1585,W,1,05,1.4,62.4,M,-32.8,M,,",45,30.6,-73,-34.16,0,354.8,-14.7,1,5,62.4,0,0.863,10,7999,1
"2024-05-30 19:22:52",2561,11.92,26.44,23.22,"$GPRMC,192251,A,4530.6022,N,07334.1589,W,000.0,354.8,300524,014.7,W","$GPGGA,192251,4530.6022,N,07334.1589,W,1,05,1.4,62.3,M,-32.8,M,,",45,30.6,-73,-34.16,0,354.8,-14.7,1,5,62.3,0,0.873,10,7999,1
"2024-05-30 19:22:53",2562,11.93,26.45,23.23,"$GPRMC,192252,A,4530.6025,N,07334.1588,W,000.0,354.8,300524,014.7,W","$GPGGA,192252,4530.6025,N,07334.1588,W,1,04,2.0,62.3,M,-32.8,M,,",45,30.6,-73,-34.16,0,354.8,-14.7,1,4,62.3,0,0.881,10,7999,1
"2024-05-30 19:22:54",2563,11.92,26.44,23.2,"$GPRMC,192253,A,4530.6028,N,07334.1587,W,000.0,354.8,300524,014.7,W","$GPGGA,192253,4530.6028,N,07334.1587,W,1,04,1.7,62.3,M,-32.8,M,,",45,30.6,-73,-34.16,0,354.8,-14.7,1,4,62.3,0,0.853,10,7999,1
"2024-05-30 19:22:55",2564,11.92,26.44,23.19,"$GPRMC,192254,A,4530.6031,N,07334.1588,W,000.0,354.8,300524,014.7,W","$GPGGA,192254,4530.6031,N,07334.1588,W,1,04,1.7,62.3,M,-32.8,M,,",45,30.6,-73,-34.16,0,354.8,-14.7,1,4,62.3,0,0.883,10,7999,1
"2024-05-30 19:22:56",2565,11.92,26.44,23.2,"$GPRMC,192255,A,4530.6033,N,07334.1590,W,000.0,354.8,300524,014.7,W","$GPGGA,192255,4530.6033,N,07334.1590,W,1,04,2.0,62.3,M,-32.8,M,,",45,30.6,-73,-34.16,0,354.8,-14.7,1,4,62.3,0,0.887,10,7999,1
"2024-05-30 19:22:57",2566,11.92,26.45,23.21,"$GPRMC,192256,A,4530.6035,N,07334.1591,W,000.0,354.8,300524,014.7,W","$GPGGA,192256,4530.6035,N,07334.1591,W,1,04,1.7,62.2,M,-32.8,M,,",45,30.6,-73,-34.16,0,354.8,-14.7,1,4,62.2,0,0.881,10,7999,1
"2024-05-30 19:22:58",2567,11.93,26.45,23.22,"$GPRMC,192257,A,4530.6036,N,07334.1592,W,000.0,354.8,300524,014.7,W","$GPGGA,192257,4530.6036,N,07334.1592,W,1,04,2.0,62.2,M,-32.8,M,,",45,30.6,-73,-34.16,0,354.8,-14.7,1,4,62.2,0,0.907,10,7999,1
"2024-05-30 19:22:59",2568,11.92,26.45,23.21,"$GPRMC,192258,A,4530.6039,N,07334.1592,W,000.0,354.8,300524,014.7,W","$GPGGA,192258,4530.6039,N,07334.1592,W,1,04,1.7,62.3,M,-32.8,M,,",45,30.6,-73,-34.16,0,354.8,-14.7,1,4,62.3,0,0.885,10,7999,1
"2024-05-30 19:23:00",2569,11.92,26.45,23.21,"$GPRMC,192259,A,4530.6040,N,07334.1592,W,000.0,354.8,300524,014.7,W","$GPGGA,192259,4530.6040,N,07334.1592,W,1,04,1.7,62.3,M,-32.8,M,,",45,30.6,-73,-34.16,0,354.8,-14.7,1,4,62.3,0,0.881,10,7999,1
"2024-05-30 19:23:01",2570,11.92,26.44,23.21,"$GPRMC,192300,A,4530.6042,N,07334.1592,W,000.0,354.8,300524,014.7,W","$GPGGA,192300,4530.6042,N,07334.1592,W,1,04,1.7,62.3,M,-32.8,M,,",45,30.6,-73,-34.16,0,354.8,-14.7,1,4,62.3,0,0.879,10,7999,1
"2024-05-30 19:23:02",2571,11.92,26.45,23.21,"$GPRMC,192301,A,4530.6044,N,07334.1592,W,000.0,354.8,300524,014.7,W","$GPGGA,192301,4530.6044,N,07334.1592,W,1,04,1.7,62.3,M,-32.8,M,,",45,30.6,-73,-34.16,0,354.8,-14.7,1,4,62.3,0,0.877,10,7999,1
"2024-05-30 19:23:03",2572,11.93,26.45,23.21,"$GPRMC,192302,A,4530.6046,N,07334.1591,W,000.0,354.8,300524,014.7,W","$GPGGA,192302,4530.6046,N,07334.1591,W,1,04,2.0,62.3,M,-32.8,M,,",45,30.6,-73,-34.16,0,354.8,-14.7,1,4,62.3,0,0.897,10,7999,1
"2024-05-30 19:23:04",2573,11.93,26.44,23.22,"$GPRMC,192303,A,4530.6047,N,07334.1591,W,000.0,354.8,300524,014.7,W","$GPGGA,192303,4530.6047,N,07334.1591,W,1,04,2.0,62.3,M,-32.8,M,,",45,30.6,-73,-34.16,0,354.8,-14.7,1,4,62.3,0,0.877,10,7999,1
"2024-05-30 19:23:05",2574,11.92,26.45,23.21,"$GPRMC,192304,A,4530.6050,N,07334.1590,W,000.0,354.8,300524,014.7,W","$GPGGA,192304,4530.6050,N,07334.1590,W,1,04,2.0,62.4,M,-32.8,M,,",45,30.61,-73,-34.16,0,354.8,-14.7,1,4,62.4,0,0.871,10,7999,1
"2024-05-30 19:23:06",2575,11.93,26.45,23.22,"$GPRMC,192305,A,4530.6050,N,07334.1590,W,000.0,354.8,300524,014.7,W","$GPGGA,192305,4530.6050,N,07334.1590,W,1,04,2.0,62.4,M,-32.8,M,,",45,30.61,-73,-34.16,0,354.8,-14.7,1,4,62.4,0,0.895,10,7999,1
"2024-05-30 19:23:07",2576,11.92,26.46,23.22,"$GPRMC,192306,A,4530.6052,N,07334.1592,W,000.0,354.8,300524,014.7,W","$GPGGA,192306,4530.6052,N,07334.1592,W,1,04,1.7,62.4,M,-32.8,M,,",45,30.61,-73,-34.16,0,354.8,-14.7,1,4,62.4,0,0.865,10,7999,1
"2024-05-30 19:23:08",2577,11.92,26.46,23.22,"$GPRMC,192307,A,4530.6055,N,07334.1594,W,000.0,354.8,300524,014.7,W","$GPGGA,192307,4530.6055,N,07334.1594,W,1,04,2.0,62.5,M,-32.8,M,,",45,30.61,-73,-34.16,0,354.8,-14.7,1,4,62.5,0,0.891,10,7999,1
"2024-05-30 19:23:09",2578,11.93,26.45,23.22,"$GPRMC,192308,A,4530.6057,N,07334.1592,W,000.0,354.8,300524,014.7,W","$GPGGA,192308,4530.6057,N,07334.1592,W,1,04,2.0,62.5,M,-32.8,M,,",45,30.61,-73,-34.16,0,354.8,-14.7,1,4,62.5,0,0.879,10,7999,1
"2024-05-30 19:23:10",2579,11.93,26.46,23.22,"$GPRMC,192309,A,4530.6060,N,07334.1591,W,000.0,354.8,300524,014.7,W","$GPGGA,192309,4530.6060,N,07334.1591,W,1,04,2.0,62.5,M,-32.8,M,,",45,30.61,-73,-34.16,0,354.8,-14.7,1,4,62.5,0,0.881,10,7999,1
"2024-05-30 19:23:11",2580,11.92,26.46,23.24,"$GPRMC,192310,A,4530.6060,N,07334.1589,W,000.0,354.8,300524,014.7,W","$GPGGA,192310,4530.6060,N,07334.1589,W,1,04,2.0,62.5,M,-32.8,M,,",45,30.61,-73,-34.16,0,354.8,-14.7,1,4,62.5,0,0.883,10,7999,1
"2024-05-30 19:23:12",2581,11.92,26.46,23.25,"$GPRMC,192311,A,4530.6061,N,07334.1589,W,000.0,354.8,300524,014.7,W","$GPGGA,192311,4530.6061,N,07334.1589,W,1,04,2.0,62.6,M,-32.8,M,,",45,30.61,-73,-34.16,0,354.8,-14.7,1,4,62.6,0,0.905,10,7999,1
"2024-05-30 19:23:13",2582,11.92,26.45,23.26,"$GPRMC,192312,A,4530.6063,N,07334.1589,W,000.0,354.8,300524,014.7,W","$GPGGA,192312,4530.6063,N,07334.1589,W,1,04,2.0,62.6,M,-32.8,M,,",45,30.61,-73,-34.16,0,354.8,-14.7,1,4,62.6,0,0.923,10,7999,1
"2024-05-30 19:23:14",2583,11.92,26.46,23.26,"$GPRMC,192313,A,4530.6063,N,07334.1589,W,000.0,354.8,300524,014.7,W","$GPGGA,192313,4530.6063,N,07334.1589,W,1,04,2.0,62.6,M,-32.8,M,,",45,30.61,-73,-34.16,0,354.8,-14.7,1,4,62.6,0,0.897,10,7999,1
"2024-05-30 19:23:15",2584,11.92,26.46,23.26,"$GPRMC,192314,A,4530.6064,N,07334.1589,W,000.0,354.8,300524,014.7,W","$GPGGA,192314,4530.6064,N,07334.1589,W,1,04,2.0,62.6,M,-32.8,M,,",45,30.61,-73,-34.16,0,354.8,-14.7,1,4,62.6,0,0.903,10,7999,1
"2024-05-30 19:23:16",2585,11.93,26.47,23.29,"$GPRMC,192315,A,4530.6066,N,07334.1587,W,000.0,354.8,300524,014.7,W","$GPGGA,192315,4530.6066,N,07334.1587,W,1,04,2.0,62.6,M,-32.8,M,,",45,30.61,-73,-34.16,0,354.8,-14.7,1,4,62.6,0,0.915,10,7999,1
"2024-05-30 19:23:17",2586,11.92,26.45,23.29,"$GPRMC,192316,A,4530.6067,N,07334.1587,W,000.0,354.8,300524,014.7,W","$GPGGA,192316,4530.6067,N,07334.1587,W,1,04,2.0,62.5,M,-32.8,M,,",45,30.61,-73,-34.16,0,354.8,-14.7,1,4,62.5,0,0.921,10,7999,1
"2024-05-30 19:23:18",2587,11.92,26.46,23.3,"$GPRMC,192317,A,4530.6069,N,07334.1589,W,000.0,354.8,300524,014.7,W","$GPGGA,192317,4530.6069,N,07334.1589,W,1,04,2.0,62.6,M,-32.8,M,,",45,30.61,-73,-34.16,0,354.8,-14.7,1,4,62.6,0,0.873,10,7999,1
"2024-05-30 19:23:19",2588,11.92,26.45,23.32,"$GPRMC,192318,A,4530.6073,N,07334.1585,W,000.0,354.8,300524,014.7,W","$GPGGA,192318,4530.6073,N,07334.1585,W,1,04,1.7,62.7,M,-32.8,M,,",45,30.61,-73,-34.16,0,354.8,-14.7,1,4,62.7,0,0.875,10,7999,1
"2024-05-30 19:23:20",2589,11.92,26.47,23.32,"$GPRMC,192319,A,4530.6072,N,07334.1584,W,000.0,354.8,300524,014.7,W","$GPGGA,192319,4530.6072,N,07334.1584,W,1,04,2.0,62.8,M,-32.8,M,,",45,30.61,-73,-34.16,0,354.8,-14.7,1,4,62.8,0,0.883,10,7999,1
"2024-05-30 19:23:21",2590,11.92,26.53,23.32,"$GPRMC,192320,A,4530.6073,N,07334.1583,W,000.0,354.8,300524,014.7,W","$GPGGA,192320,4530.6073,N,07334.1583,W,1,04,2.0,62.8,M,-32.8,M,,",45,30.61,-73,-34.16,0,354.8,-14.7,1,4,62.8,0,0.873,10,7999,1
"2024-05-30 19:23:22",2591,11.92,26.46,23.31,"$GPRMC,192321,A,4530.6073,N,07334.1583,W,000.0,354.8,300524,014.7,W","$GPGGA,192321,4530.6073,N,07334.1583,W,1,04,2.0,62.9,M,-32.8,M,,",45,30.61,-73,-34.16,0,354.8,-14.7,1,4,62.9,0,0.893,10,7999,1
"2024-05-30 19:23:23",2592,11.92,26.62,23.31,"$GPRMC,192322,A,4530.6076,N,07334.1579,W,000.0,354.8,300524,014.7,W","$GPGGA,192322,4530.6076,N,07334.1579,W,1,04,2.0,62.9,M,-32.8,M,,",45,30.61,-73,-34.16,0,354.8,-14.7,1,4,62.9,0,0.891,10,7999,1
"2024-05-30 19:23:24",2593,11.93,26.43,23.3,"$GPRMC,192323,A,4530.6077,N,07334.1577,W,000.0,354.8,300524,014.7,W","$GPGGA,192323,4530.6077,N,07334.1577,W,1,04,1.7,62.9,M,-32.8,M,,",45,30.61,-73,-34.16,0,354.8,-14.7,1,4,62.9,0,0.876,10,7999,1
"2024-05-30 19:23:25",2594,11.93,26.45,23.29,"$GPRMC,192324,A,4530.6077,N,07334.1577,W,000.0,354.8,300524,014.7,W","$GPGGA,192324,4530.6077,N,07334.1577,W,1,04,1.7,62.9,M,-32.8,M,,",45,30.61,-73,-34.16,0,354.8,-14.7,1,4,62.9,0,0.883,10,7999,1
"2024-05-30 19:23:26",2595,11.92,26.45,23.28,"$GPRMC,192325,A,4530.6078,N,07334.1577,W,000.0,354.8,300524,014.7,W","$GPGGA,192325,4530.6078,N,07334.1577,W,1,04,2.0,63.0,M,-32.8,M,,",45,30.61,-73,-34.16,0,354.8,-14.7,1,4,63,0,0.871,10,7999,1
"2024-05-30 19:23:27",2596,11.92,26.46,23.29,"$GPRMC,192326,A,4530.6078,N,07334.1576,W,000.0,354.8,300524,014.7,W","$GPGGA,192326,4530.6078,N,07334.1576,W,1,04,2.0,63.0,M,-32.8,M,,",45,30.61,-73,-34.16,0,354.8,-14.7,1,4,63,0,0.907,10,7999,1
"2024-05-30 19:23:28",2597,11.92,26.45,23.3,"$GPRMC,192327,A,4530.6077,N,07334.1574,W,000.0,354.8,300524,014.7,W","$GPGGA,192327,4530.6077,N,07334.1574,W,1,04,2.0,63.0,M,-32.8,M,,",45,30.61,-73,-34.16,0,354.8,-14.7,1,4,63,0,0.881,10,7999,1
"2024-05-30 19:23:29",2598,11.92,26.46,23.28,"$GPRMC,192328,A,4530.6075,N,07334.1572,W,000.0,354.8,300524,014.7,W","$GPGGA,192328,4530.6075,N,07334.1572,W,1,04,1.7,63.0,M,-32.8,M,,",45,30.61,-73,-34.16,0,354.8,-14.7,1,4,63,0,0.867,10,7999,1
"2024-05-30 19:23:30",2599,11.92,26.47,23.28,"$GPRMC,192329,A,4530.6074,N,07334.1569,W,000.0,354.8,300524,014.7,W","$GPGGA,192329,4530.6074,N,07334.1569,W,1,04,1.7,63.0,M,-32.8,M,,",45,30.61,-73,-34.16,0,354.8,-14.7,1,4,63,0,0.885,10,7999,1
"2024-05-30 19:23:31",2600,11.92,26.48,23.27,"$GPRMC,192330,A,4530.6073,N,07334.1568,W,000.0,354.8,300524,014.7,W","$GPGGA,192330,4530.6073,N,07334.1568,W,1,04,1.7,63.1,M,-32.8,M,,",45,30.61,-73,-34.16,0,354.8,-14.7,1,4,63.1,0,0.893,10,7999,1
"2024-05-30 19:23:32",2601,11.92,26.47,23.29,"$GPRMC,192331,A,4530.6072,N,07334.1568,W,000.0,354.8,300524,014.7,W","$GPGGA,192331,4530.6072,N,07334.1568,W,1,04,1.7,63.0,M,-32.8,M,,",45,30.61,-73,-34.16,0,354.8,-14.7,1,4,63,0,0.903,10,7999,1
"2024-05-30 19:23:33",2602,11.92,26.48,23.28,"$GPRMC,192332,A,4530.6072,N,07334.1566,W,000.0,354.8,300524,014.7,W","$GPGGA,192332,4530.6072,N,07334.1566,W,1,04,1.7,63.0,M,-32.8,M,,",45,30.61,-73,-34.16,0,354.8,-14.7,1,4,63,0,0.875,10,7999,1
"2024-05-30 19:23:34",2603,11.92,26.47,23.27,"$GPRMC,192333,A,4530.6070,N,07334.1563,W,000.0,354.8,300524,014.7,W","$GPGGA,192333,4530.6070,N,07334.1563,W,1,04,2.0,63.0,M,-32.8,M,,",45,30.61,-73,-34.16,0,354.8,-14.7,1,4,63,0,0.861,10,7999,1
"2024-05-30 19:23:35",2604,11.93,26.47,23.25,"$GPRMC,192334,A,4530.6067,N,07334.1561,W,000.0,354.8,300524,014.7,W","$GPGGA,192334,4530.6067,N,07334.1561,W,1,04,2.0,63.0,M,-32.8,M,,",45,30.61,-73,-34.16,0,354.8,-14.7,1,4,63,0,0.883,10,7999,1
"2024-05-30 19:23:36",2605,11.92,26.47,23.26,"$GPRMC,192335,A,4530.6066,N,07334.1562,W,000.0,354.8,300524,014.7,W","$GPGGA,192335,4530.6066,N,07334.1562,W,1,04,1.7,63.0,M,-32.8,M,,",45,30.61,-73,-34.16,0,354.8,-14.7,1,4,63,0,0.891,10,7999,1
"2024-05-30 19:23:37",2606,11.93,26.47,23.27,"$GPRMC,192336,A,4530.6064,N,07334.1561,W,000.0,354.8,300524,014.7,W","$GPGGA,192336,4530.6064,N,07334.1561,W,1,04,1.7,63.0,M,-32.8,M,,",45,30.61,-73,-34.16,0,354.8,-14.7,1,4,63,0,0.897,10,7999,1
"2024-05-30 19:23:38",2607,11.92,26.47,23.26,"$GPRMC,192337,A,4530.6064,N,07334.1559,W,000.0,354.8,300524,014.7,W","$GPGGA,192337,4530.6064,N,07334.1559,W,1,04,1.7,63.0,M,-32.8,M,,",45,30.61,-73,-34.16,0,354.8,-14.7,1,4,63,0,0.889,10,7999,1
"2024-05-30 19:23:39",2608,11.92,26.47,23.27,"$GPRMC,192338,A,4530.6064,N,07334.1557,W,000.0,354.8,300524,014.7,W","$GPGGA,192338,4530.6064,N,07334.1557,W,1,04,1.7,62.9,M,-32.8,M,,",45,30.61,-73,-34.16,0,354.8,-14.7,1,4,62.9,0,0.871,10,7999,1
"2024-05-30 19:23:40",2609,11.92,26.65,23.29,"$GPRMC,192339,A,4530.6065,N,07334.1557,W,000.0,354.8,300524,014.7,W","$GPGGA,192339,4530.6065,N,07334.1557,W,1,04,1.7,62.9,M,-32.8,M,,",45,30.61,-73,-34.16,0,354.8,-14.7,1,4,62.9,0,0.871,10,7999,1
"2024-05-30 19:23:41",2610,11.92,26.48,23.3,"$GPRMC,192340,A,4530.6066,N,07334.1558,W,000.0,354.8,300524,014.7,W","$GPGGA,192340,4530.6066,N,07334.1558,W,1,04,1.7,62.9,M,-32.8,M,,",45,30.61,-73,-34.16,0,354.8,-14.7,1,4,62.9,0,0.925,10,7999,1
"2024-05-30 19:23:42",2611,11.92,26.47,23.29,"$GPRMC,192341,A,4530.6066,N,07334.1557,W,000.0,354.8,300524,014.7,W","$GPGGA,192341,4530.6066,N,07334.1557,W,1,04,1.7,62.8,M,-32.8,M,,",45,30.61,-73,-34.16,0,354.8,-14.7,1,4,62.8,0,0.903,10,7999,1
"2024-05-30 19:23:43",2612,11.93,26.48,23.28,"$GPRMC,192342,A,4530.6065,N,07334.1558,W,000.0,354.8,300524,014.7,W","$GPGGA,192342,4530.6065,N,07334.1558,W,1,04,1.7,62.7,M,-32.8,M,,",45,30.61,-73,-34.16,0,354.8,-14.7,1,4,62.7,0,0.905,10,7999,1
"2024-05-30 19:23:44",2613,11.92,26.47,23.28,"$GPRMC,192343,A,4530.6064,N,07334.1561,W,000.0,354.8,300524,014.7,W","$GPGGA,192343,4530.6064,N,07334.1561,W,1,04,1.7,62.8,M,-32.8,M,,",45,30.61,-73,-34.16,0,354.8,-14.7,1,4,62.8,0,0.899,10,7999,1
"2024-05-30 19:23:45",2614,11.92,26.48,23.27,"$GPRMC,192344,A,4530.6064,N,07334.1564,W,000.0,354.8,300524,014.7,W","$GPGGA,192344,4530.6064,N,07334.1564,W,1,04,1.7,62.8,M,-32.8,M,,",45,30.61,-73,-34.16,0,354.8,-14.7,1,4,62.8,0,0.905,10,7999,1
"2024-05-30 19:23:46",2615,11.92,26.48,23.29,"$GPRMC,192345,A,4530.6066,N,07334.1564,W,000.0,354.8,300524,014.7,W","$GPGGA,192345,4530.6066,N,07334.1564,W,1,04,2.0,62.6,M,-32.8,M,,",45,30.61,-73,-34.16,0,354.8,-14.7,1,4,62.6,0,0.915,10,7999,1
"2024-05-30 19:23:47",2616,11.92,26.48,23.31,"$GPRMC,192346,A,4530.6066,N,07334.1564,W,000.0,354.8,300524,014.7,W","$GPGGA,192346,4530.6066,N,07334.1564,W,1,04,2.0,62.6,M,-32.8,M,,",45,30.61,-73,-34.16,0,354.8,-14.7,1,4,62.6,0,0.915,10,7999,1
"2024-05-30 19:23:48",2617,11.92,26.49,23.32,"$GPRMC,192347,A,4530.6066,N,07334.1563,W,000.0,354.8,300524,014.7,W","$GPGGA,192347,4530.6066,N,07334.1563,W,1,04,1.7,62.6,M,-32.8,M,,",45,30.61,-73,-34.16,0,354.8,-14.7,1,4,62.6,7999,0.915,10,7999,1
"2024-05-30 19:23:49",2618,11.92,26.47,23.3,"$GPRMC,192348,A,4530.6067,N,07334.1563,W,000.0,354.8,300524,014.7,W","$GPGGA,192348,4530.6067,N,07334.1563,W,1,04,1.7,62.5,M,-32.8,M,,",45,30.61,-73,-34.16,0,354.8,-14.7,1,4,62.5,7999,0.907,10,7999,1
"2024-05-30 19:23:50",2619,11.92,26.55,23.29,"$GPRMC,192349,A,4530.6068,N,07334.1565,W,000.0,354.8,300524,014.7,W","$GPGGA,192349,4530.6068,N,07334.1565,W,1,04,1.7,62.4,M,-32.8,M,,",45,30.61,-73,-34.16,0,354.8,-14.7,1,4,62.4,7999,0.917,10,7999,1
"2024-05-30 19:23:51",2620,11.92,26.48,23.29,"$GPRMC,192350,A,4530.6069,N,07334.1566,W,000.0,354.8,300524,014.7,W","$GPGGA,192350,4530.6069,N,07334.1566,W,1,04,1.7,62.4,M,-32.8,M,,",45,30.61,-73,-34.16,0,354.8,-14.7,1,4,62.4,7999,0.905,10,7999,1
"2024-05-30 19:23:52",2621,11.92,26.48,23.3,"$GPRMC,192351,A,4530.6070,N,07334.1567,W,000.0,354.8,300524,014.7,W","$GPGGA,192351,4530.6070,N,07334.1567,W,1,04,1.7,62.3,M,-32.8,M,,",45,30.61,-73,-34.16,0,354.8,-14.7,1,4,62.3,7999,0.909,10,7999,1
"2024-05-30 19:23:53",2622,11.92,26.48,23.28,"$GPRMC,192352,A,4530.6071,N,07334.1567,W,000.0,354.8,300524,014.7,W","$GPGGA,192352,4530.6071,N,07334.1567,W,1,04,1.7,62.3,M,-32.8,M,,",45,30.61,-73,-34.16,0,354.8,-14.7,1,4,62.3,7999,0.909,10,7999,1
"2024-05-30 19:23:54",2623,11.92,26.49,23.29,"$GPRMC,192353,A,4530.6072,N,07334.1566,W,000.0,354.8,300524,014.7,W","$GPGGA,192353,4530.6072,N,07334.1566,W,1,04,1.7,62.2,M,-32.8,M,,",45,30.61,-73,-34.16,0,354.8,-14.7,1,4,62.2,7999,0.873,10,7999,1
"2024-05-30 19:23:55",2624,11.92,26.49,23.29,"$GPRMC,192354,A,4530.6075,N,07334.1565,W,000.0,354.8,300524,014.7,W","$GPGGA,192354,4530.6075,N,07334.1565,W,1,04,1.7,62.0,M,-32.8,M,,",45,30.61,-73,-34.16,0,354.8,-14.7,1,4,62,7999,0.915,10,7999,1
"2024-05-30 19:23:56",2625,11.92,26.47,23.31,"$GPRMC,192355,A,4530.6096,N,07334.1575,W,000.0,354.8,300524,014.7,W","$GPGGA,192355,4530.6096,N,07334.1575,W,1,05,1.4,62.7,M,-32.8,M,,",45,30.61,-73,-34.16,0,354.8,-14.7,1,5,62.7,7999,0.867,10,7999,1
"2024-05-30 19:23:57",2626,11.92,26.49,23.32,"$GPRMC,192356,A,4530.6116,N,07334.1584,W,000.0,354.8,300524,014.7,W","$GPGGA,192356,4530.6116,N,07334.1584,W,1,05,1.4,63.3,M,-32.8,M,,",45,30.61,-73,-34.16,0,354.8,-14.7,1,5,63.3,7999,0.861,10,7999,1
"2024-05-30 19:23:58",2627,11.92,26.49,23.31,"$GPRMC,192357,A,4530.6125,N,07334.1581,W,000.0,354.8,300524,014.7,W","$GPGGA,192357,4530.6125,N,07334.1581,W,1,05,1.8,63.9,M,-32.8,M,,",45,30.61,-73,-34.16,0,354.8,-14.7,1,5,63.9,7999,0.869,10,7999,1
"2024-05-30 19:23:59",2628,11.92,26.48,23.32,"$GPRMC,192358,A,4530.6133,N,07334.1581,W,000.0,354.8,300524,014.7,W","$GPGGA,192358,4530.6133,N,07334.1581,W,1,05,1.8,64.2,M,-32.8,M,,",45,30.61,-73,-34.16,0,354.8,-14.7,1,5,64.2,7999,0.871,10,7999,1
"2024-05-30 19:24:00",2629,11.92,26.48,23.33,"$GPRMC,192359,A,4530.6136,N,07334.1582,W,000.0,354.8,300524,014.7,W","$GPGGA,192359,4530.6136,N,07334.1582,W,1,05,1.8,64.2,M,-32.8,M,,",45,30.61,-73,-34.16,0,354.8,-14.7,1,5,64.2,7999,0.905,10,7999,1
"2024-05-30 19:24:01",2630,11.92,26.49,23.35,"$GPRMC,192400,A,4530.6137,N,07334.1583,W,000.0,354.8,300524,014.7,W","$GPGGA,192400,4530.6137,N,07334.1583,W,1,05,1.8,64.2,M,-32.8,M,,",45,30.61,-73,-34.16,0,354.8,-14.7,1,5,64.2,7999,0.881,10,7999,1
"2024-05-30 19:24:02",2631,11.92,26.49,23.37,"$GPRMC,192401,A,4530.6139,N,07334.1583,W,000.0,354.8,300524,014.7,W","$GPGGA,192401,4530.6139,N,07334.1583,W,1,05,1.8,64.2,M,-32.8,M,,",45,30.61,-73,-34.16,0,354.8,-14.7,1,5,64.2,7999,0.877,10,7999,1
"2024-05-30 19:24:03",2632,11.92,26.5,23.37,"$GPRMC,192402,A,4530.6141,N,07334.1582,W,000.0,354.8,300524,014.7,W","$GPGGA,192402,4530.6141,N,07334.1582,W,1,05,1.8,64.1,M,-32.8,M,,",45,30.61,-73,-34.16,0,354.8,-14.7,1,5,64.1,7999,0.865,10,7999,1
"2024-05-30 19:24:04",2633,11.92,26.49,23.4,"$GPRMC,192403,A,4530.6143,N,07334.1578,W,000.0,354.8,300524,014.7,W","$GPGGA,192403,4530.6143,N,07334.1578,W,1,05,1.8,64.1,M,-32.8,M,,",45,30.61,-73,-34.16,0,354.8,-14.7,1,5,64.1,7999,0.871,10,7999,1
"2024-05-30 19:24:05",2634,11.92,26.61,23.4,"$GPRMC,192404,A,4530.6144,N,07334.1576,W,000.0,354.8,300524,014.7,W","$GPGGA,192404,4530.6144,N,07334.1576,W,1,05,1.4,64.1,M,-32.8,M,,",45,30.61,-73,-34.16,0,354.8,-14.7,1,5,64.1,7999,0.901,10,7999,1
"2024-05-30 19:24:06",2635,11.92,26.49,23.4,"$GPRMC,192405,A,4530.6145,N,07334.1577,W,000.0,354.8,300524,014.7,W","$GPGGA,192405,4530.6145,N,07334.1577,W,1,05,1.4,64.1,M,-32.8,M,,",45,30.61,-73,-34.16,0,354.8,-14.7,1,5,64.1,7999,0.881,10,7999,1
"2024-05-30 19:24:07",2636,11.93,26.49,23.4,"$GPRMC,192406,A,4530.6147,N,07334.1576,W,000.0,354.8,300524,014.7,W","$GPGGA,192406,4530.6147,N,07334.1576,W,1,05,1.4,64.1,M,-32.8,M,,",45,30.61,-73,-34.16,0,354.8,-14.7,1,5,64.1,7999,0.889,10,7999,1
"2024-05-30 19:24:08",2637,11.92,26.73,23.4,"$GPRMC,192407,A,4530.6147,N,07334.1574,W,000.0,354.8,300524,014.7,W","$GPGGA,192407,4530.6147,N,07334.1574,W,1,05,1.8,64.0,M,-32.8,M,,",45,30.61,-73,-34.16,0,354.8,-14.7,1,5,64,7999,0.873,10,7999,1
"2024-05-30 19:24:09",2638,11.93,26.49,23.41,"$GPRMC,192408,A,4530.6149,N,07334.1572,W,000.0,354.8,300524,014.7,W","$GPGGA,192408,4530.6149,N,07334.1572,W,1,05,1.8,64.0,M,-32.8,M,,",45,30.61,-73,-34.16,0,354.8,-14.7,1,5,64,7999,0.867,10,7999,1
"2024-05-30 19:24:10",2639,11.92,26.48,23.42,"$GPRMC,192409,A,4530.6151,N,07334.1572,W,000.0,354.8,300524,014.7,W","$GPGGA,192409,4530.6151,N,07334.1572,W,1,05,1.8,64.0,M,-32.8,M,,",45,30.62,-73,-34.16,0,354.8,-14.7,1,5,64,7999,0.875,10,7999,1
"2024-05-30 19:24:11",2640,11.92,26.49,23.42,"$GPRMC,192410,A,4530.6153,N,07334.1571,W,000.0,354.8,300524,014.7,W","$GPGGA,192410,4530.6153,N,07334.1571,W,1,05,1.8,64.0,M,-32.8,M,,",45,30.62,-73,-34.16,0,354.8,-14.7,1,5,64,7999,0.883,10,7999,1
"2024-05-30 19:24:12",2641,11.92,26.47,23.44,"$GPRMC,192411,A,4530.6154,N,07334.1569,W,000.0,354.8,300524,014.7,W","$GPGGA,192411,4530.6154,N,07334.1569,W,1,05,1.8,64.0,M,-32.8,M,,",45,30.62,-73,-34.16,0,354.8,-14.7,1,5,64,7999,0.865,10,7999,1
"2024-05-30 19:24:13",2642,11.92,26.66,23.41,"$GPRMC,192412,A,4530.6154,N,07334.1569,W,000.0,354.8,300524,014.7,W","$GPGGA,192412,4530.6154,N,07334.1569,W,1,05,1.4,63.9,M,-32.8,M,,",45,30.62,-73,-34.16,0,354.8,-14.7,1,5,63.9,7999,0.873,10,7999,1
"2024-05-30 19:24:14",2643,11.92,26.49,23.41,"$GPRMC,192413,A,4530.6154,N,07334.1569,W,000.0,354.8,300524,014.7,W","$GPGGA,192413,4530.6154,N,07334.1569,W,1,05,1.8,63.9,M,-32.8,M,,",45,30.62,-73,-34.16,0,354.8,-14.7,1,5,63.9,7999,0.867,10,7999,1
"2024-05-30 19:24:15",2644,11.93,26.5,23.43,"$GPRMC,192414,A,4530.6155,N,07334.1568,W,000.0,354.8,300524,014.7,W","$GPGGA,192414,4530.6155,N,07334.1568,W,1,05,1.4,63.9,M,-32.8,M,,",45,30.62,-73,-34.16,0,354.8,-14.7,1,5,63.9,7999,0.867,10,7999,1
"2024-05-30 19:24:16",2645,11.92,26.5,23.43,"$GPRMC,192415,A,4530.6155,N,07334.1566,W,000.0,354.8,300524,014.7,W","$GPGGA,192415,4530.6155,N,07334.1566,W,1,05,1.4,63.9,M,-32.8,M,,",45,30.62,-73,-34.16,0,354.8,-14.7,1,5,63.9,7999,0.863,10,7999,1
"2024-05-30 19:24:17",2646,11.92,26.49,23.43,"$GPRMC,192416,A,4530.6153,N,07334.1565,W,000.0,354.8,300524,014.7,W","$GPGGA,192416,4530.6153,N,07334.1565,W,1,05,1.4,63.9,M,-32.8,M,,",45,30.62,-73,-34.16,0,354.8,-14.7,1,5,63.9,7999,0.865,10,7999,1
"2024-05-30 19:24:18",2647,11.92,26.49,23.43,"$GPRMC,192417,A,4530.6155,N,07334.1563,W,000.0,354.8,300524,014.7,W","$GPGGA,192417,4530.6155,N,07334.1563,W,1,05,1.4,63.9,M,-32.8,M,,",45,30.62,-73,-34.16,0,354.8,-14.7,1,5,63.9,7999,0.865,10,7999,1
"2024-05-30 19:24:19",2648,11.92,26.5,23.42,"$GPRMC,192418,A,4530.6155,N,07334.1560,W,000.0,354.8,300524,014.7,W","$GPGGA,192418,4530.6155,N,07334.1560,W,1,05,1.4,63.9,M,-32.8,M,,",45,30.62,-73,-34.16,0,354.8,-14.7,1,5,63.9,7999,0.849,10,7999,1
"2024-05-30 19:24:20",2649,11.92,26.5,23.42,"$GPRMC,192419,A,4530.6155,N,07334.1560,W,000.0,354.8,300524,014.7,W","$GPGGA,192419,4530.6155,N,07334.1560,W,1,05,1.4,63.9,M,-32.8,M,,",45,30.62,-73,-34.16,0,354.8,-14.7,1,5,63.9,7999,0.857,10,7999,1
"2024-05-30 19:24:21",2650,11.92,26.48,23.42,"$GPRMC,192420,A,4530.6156,N,07334.1559,W,000.0,354.8,300524,014.7,W","$GPGGA,192420,4530.6156,N,07334.1559,W,1,05,1.4,63.9,M,-32.8,M,,",45,30.62,-73,-34.16,0,354.8,-14.7,1,5,63.9,7999,0.877,10,7999,1
"2024-05-30 19:24:22",2651,11.92,26.49,23.42,"$GPRMC,192421,A,4530.6156,N,07334.1557,W,000.0,354.8,300524,014.7,W","$GPGGA,192421,4530.6156,N,07334.1557,W,1,05,1.4,63.9,M,-32.8,M,,",45,30.62,-73,-34.16,0,354.8,-14.7,1,5,63.9,7999,0.871,10,7999,1
"2024-05-30 19:24:23",2652,11.93,26.49,23.42,"$GPRMC,192422,A,4530.6157,N,07334.1553,W,000.0,354.8,300524,014.7,W","$GPGGA,192422,4530.6157,N,07334.1553,W,1,05,1.4,63.9,M,-32.8,M,,",45,30.62,-73,-34.16,0,354.8,-14.7,1,5,63.9,7999,0.875,10,7999,1
"2024-05-30 19:24:24",2653,11.92,26.47,23.4,"$GPRMC,192423,A,4530.6158,N,07334.1551,W,000.0,354.8,300524,014.7,W","$GPGGA,192423,4530.6158,N,07334.1551,W,1,05,1.4,64.0,M,-32.8,M,,",45,30.62,-73,-34.16,0,354.8,-14.7,1,5,64,7999,0.858,10,7999,1
"2024-05-30 19:24:25",2654,11.92,26.48,23.39,"$GPRMC,192424,A,4530.6160,N,07334.1547,W,000.0,354.8,300524,014.7,W","$GPGGA,192424,4530.6160,N,07334.1547,W,1,05,1.4,64.0,M,-32.8,M,,",45,30.62,-73,-34.15,0,354.8,-14.7,1,5,64,7999,0.861,10,7999,1
"2024-05-30 19:24:26",2655,11.92,26.49,23.39,"$GPRMC,192425,A,4530.6161,N,07334.1544,W,000.0,354.8,300524,014.7,W","$GPGGA,192425,4530.6161,N,07334.1544,W,1,05,1.4,63.9,M,-32.8,M,,",45,30.62,-73,-34.15,0,354.8,-14.7,1,5,63.9,7999,0.863,10,7999,1
"2024-05-30 19:24:27",2656,11.92,26.5,23.37,"$GPRMC,192426,A,4530.6164,N,07334.1544,W,000.0,354.8,300524,014.7,W","$GPGGA,192426,4530.6164,N,07334.1544,W,1,05,1.4,63.9,M,-32.8,M,,",45,30.62,-73,-34.15,0,354.8,-14.7,1,5,63.9,7999,0.859,10,7999,1
"2024-05-30 19:24:28",2657,11.92,26.49,23.38,"$GPRMC,192427,A,4530.6163,N,07334.1546,W,000.0,354.8,300524,014.7,W","$GPGGA,192427,4530.6163,N,07334.1546,W,1,06,1.2,64.0,M,-32.8,M,,",45,30.62,-73,-34.15,0,354.8,-14.7,1,6,64,7999,0.867,10,7999,1
"2024-05-30 19:24:29",2658,11.92,26.49,23.38,"$GPRMC,192428,A,4530.6162,N,07334.1549,W,000.0,354.8,300524,014.7,W","$GPGGA,192428,4530.6162,N,07334.1549,W,1,06,1.2,64.0,M,-32.8,M,,",45,30.62,-73,-34.15,0,354.8,-14.7,1,6,64,7999,0.835,10,7999,1
"2024-05-30 19:24:30",2659,11.92,26.5,23.38,"$GPRMC,192429,A,4530.6161,N,07334.1549,W,000.0,354.8,300524,014.7,W","$GPGGA,192429,4530.6161,N,07334.1549,W,1,06,1.2,64.2,M,-32.8,M,,",45,30.62,-73,-34.15,0,354.8,-14.7,1,6,64.2,7999,0.877,10,7999,1
"2024-05-30 19:24:31",2660,11.92,26.5,23.38,"$GPRMC,192430,A,4530.6162,N,07334.1549,W,000.0,354.8,300524,014.7,W","$GPGGA,192430,4530.6162,N,07334.1549,W,1,06,1.2,64.3,M,-32.8,M,,",45,30.62,-73,-34.15,0,354.8,-14.7,1,6,64.3,7999,0.865,10,7999,1
"2024-05-30 19:24:32",2661,11.93,26.51,23.39,"$GPRMC,192431,A,4530.6161,N,07334.1550,W,000.0,354.8,300524,014.7,W","$GPGGA,192431,4530.6161,N,07334.1550,W,1,06,1.3,64.4,M,-32.8,M,,",45,30.62,-73,-34.16,0,354.8,-14.7,1,6,64.4,7999,0.857,10,7999,1
"2024-05-30 19:24:33",2662,11.92,26.49,23.38,"$GPRMC,192432,A,4530.6159,N,07334.1550,W,000.0,354.8,300524,014.7,W","$GPGGA,192432,4530.6159,N,07334.1550,W,1,06,1.3,64.6,M,-32.8,M,,",45,30.62,-73,-34.16,0,354.8,-14.7,1,6,64.6,7999,0.865,10,7999,1
"2024-05-30 19:24:34",2663,11.92,26.49,23.38,"$GPRMC,192433,A,4530.6158,N,07334.1551,W,000.0,354.8,300524,014.7,W","$GPGGA,192433,4530.6158,N,07334.1551,W,1,06,1.3,64.6,M,-32.8,M,,",45,30.62,-73,-34.16,0,354.8,-14.7,1,6,64.6,7999,0.851,10,7999,1
"2024-05-30 19:24:35",2664,11.92,26.51,23.39,"$GPRMC,192434,A,4530.6158,N,07334.1555,W,000.0,354.8,300524,014.7,W","$GPGGA,192434,4530.6158,N,07334.1555,W,1,06,1.3,64.7,M,-32.8,M,,",45,30.62,-73,-34.16,0,354.8,-14.7,1,6,64.7,7999,0.903,10,7999,1
"2024-05-30 19:24:36",2665,11.92,26.51,23.4,"$GPRMC,192435,A,4530.6157,N,07334.1557,W,000.0,354.8,300524,014.7,W","$GPGGA,192435,4530.6157,N,07334.1557,W,1,06,1.2,64.7,M,-32.8,M,,",45,30.62,-73,-34.16,0,354.8,-14.7,1,6,64.7,7999,0.891,10,7999,1
"2024-05-30 19:24:37",2666,11.92,26.51,23.41,"$GPRMC,192436,A,4530.6157,N,07334.1559,W,000.0,354.8,300524,014.7,W","$GPGGA,192436,4530.6157,N,07334.1559,W,1,06,1.2,64.8,M,-32.8,M,,",45,30.62,-73,-34.16,0,354.8,-14.7,1,6,64.8,7999,0.895,10,7999,1
"2024-05-30 19:24:38",2667,11.93,26.5,23.44,"$GPRMC,192437,A,4530.6158,N,07334.1559,W,000.0,354.8,300524,014.7,W","$GPGGA,192437,4530.6158,N,07334.1559,W,1,06,1.3,64.8,M,-32.8,M,,",45,30.62,-73,-34.16,0,354.8,-14.7,1,6,64.8,7999,0.885,10,7999,1
"2024-05-30 19:24:39",2668,11.92,26.65,23.42,"$GPRMC,192438,A,4530.6158,N,07334.1560,W,000.0,354.8,300524,014.7,W","$GPGGA,192438,4530.6158,N,07334.1560,W,1,06,1.3,64.8,M,-32.8,M,,",45,30.62,-73,-34.16,0,354.8,-14.7,1,6,64.8,7999,0.877,10,7999,1
"2024-05-30 19:24:40",2669,11.92,26.49,23.43,"$GPRMC,192439,A,4530.6159,N,07334.1561,W,000.0,354.8,300524,014.7,W","$GPGGA,192439,4530.6159,N,07334.1561,W,1,06,1.2,64.8,M,-32.8,M,,",45,30.62,-73,-34.16,0,354.8,-14.7,1,6,64.8,7999,0.887,10,7999,1
"2024-05-30 19:24:41",2670,11.92,26.51,23.44,"$GPRMC,192440,A,4530.6162,N,07334.1561,W,000.0,354.8,300524,014.7,W","$GPGGA,192440,4530.6162,N,07334.1561,W,1,06,1.2,64.9,M,-32.8,M,,",45,30.62,-73,-34.16,0,354.8,-14.7,1,6,64.9,7999,0.895,10,7999,1
"2024-05-30 19:24:42",2671,11.93,26.5,23.44,"$GPRMC,192441,A,4530.6162,N,07334.1556,W,000.0,354.8,300524,014.7,W","$GPGGA,192441,4530.6162,N,07334.1556,W,1,06,1.3,64.9,M,-32.8,M,,",45,30.62,-73,-34.16,0,354.8,-14.7,1,6,64.9,7999,0.881,10,7999,1
"2024-05-30 19:24:43",2672,11.92,26.49,23.45,"$GPRMC,192442,A,4530.6160,N,07334.1559,W,000.0,354.8,300524,014.7,W","$GPGGA,192442,4530.6160,N,07334.1559,W,1,06,1.2,65.0,M,-32.8,M,,",45,30.62,-73,-34.16,0,354.8,-14.7,1,6,65,7999,0.853,10,7999,1
"2024-05-30 19:24:44",2673,11.92,26.62,23.47,"$GPRMC,192443,A,4530.6162,N,07334.1560,W,000.0,354.8,300524,014.7,W","$GPGGA,192443,4530.6162,N,07334.1560,W,1,06,1.2,65.0,M,-32.8,M,,",45,30.62,-73,-34.16,0,354.8,-14.7,1,6,65,7999,0.879,10,7999,1
"2024-05-30 19:24:45",2674,11.92,26.51,23.47,"$GPRMC,192444,A,4530.6164,N,07334.1560,W,000.0,354.8,300524,014.7,W","$GPGGA,192444,4530.6164,N,07334.1560,W,1,06,1.2,65.0,M,-32.8,M,,",45,30.62,-73,-34.16,0,354.8,-14.7,1,6,65,7999,0.915,10,7999,1
"2024-05-30 19:24:46",2675,11.93,26.49,23.48,"$GPRMC,192445,A,4530.6167,N,07334.1561,W,000.0,354.8,300524,014.7,W","$GPGGA,192445,4530.6167,N,07334.1561,W,1,05,1.3,65.0,M,-32.8,M,,",45,30.62,-73,-34.16,0,354.8,-14.7,1,5,65,7999,0.887,10,7999,1
"2024-05-30 19:24:47",2676,11.92,26.51,23.48,"$GPRMC,192446,A,4530.6169,N,07334.1560,W,000.0,354.8,300524,014.7,W","$GPGGA,192446,4530.6169,N,07334.1560,W,1,06,1.3,65.0,M,-32.8,M,,",45,30.62,-73,-34.16,0,354.8,-14.7,1,6,65,7999,0.899,10,7999,1
"2024-05-30 19:24:48",2677,11.93,26.51,23.47,"$GPRMC,192447,A,4530.6171,N,07334.1561,W,000.0,354.8,300524,014.7,W","$GPGGA,192447,4530.6171,N,07334.1561,W,1,06,1.3,65.0,M,-32.8,M,,",45,30.62,-73,-34.16,0,354.8,-14.7,1,6,65,7999,0.899,10,7999,1
"2024-05-30 19:24:49",2678,11.92,26.51,23.49,"$GPRMC,192448,A,4530.6172,N,07334.1560,W,000.0,354.8,300524,014.7,W","$GPGGA,192448,4530.6172,N,07334.1560,W,1,05,1.3,65.0,M,-32.8,M,,",45,30.62,-73,-34.16,0,354.8,-14.7,1,5,65,7999,0.885,10,7999,1
"2024-05-30 19:24:50",2679,11.92,26.5,23.49,"$GPRMC,192449,A,4530.6175,N,07334.1561,W,000.0,354.8,300524,014.7,W","$GPGGA,192449,4530.6175,N,07334.1561,W,1,06,1.3,65.0,M,-32.8,M,,",45,30.62,-73,-34.16,0,354.8,-14.7,1,6,65,7999,0.885,10,7999,1
"2024-05-30 19:24:51",2680,11.92,26.51,23.49,"$GPRMC,192450,A,4530.6177,N,07334.1562,W,000.0,354.8,300524,014.7,W","$GPGGA,192450,4530.6177,N,07334.1562,W,1,06,1.3,65.1,M,-32.8,M,,",45,30.62,-73,-34.16,0,354.8,-14.7,1,6,65.1,7999,0.899,10,7999,1
"2024-05-30 19:24:52",2681,11.92,26.69,23.5,"$GPRMC,192451,A,4530.6179,N,07334.1563,W,000.0,354.8,300524,014.7,W","$GPGGA,192451,4530.6179,N,07334.1563,W,1,06,1.3,65.1,M,-32.8,M,,",45,30.62,-73,-34.16,0,354.8,-14.7,1,6,65.1,7999,0.901,10,7999,1
"2024-05-30 19:24:53",2682,11.92,26.51,23.5,"$GPRMC,192452,A,4530.6180,N,07334.1566,W,000.0,354.8,300524,014.7,W","$GPGGA,192452,4530.6180,N,07334.1566,W,1,06,1.3,65.1,M,-32.8,M,,",45,30.62,-73,-34.16,0,354.8,-14.7,1,6,65.1,7999,0.897,10,7999,1
"2024-05-30 19:24:54",2683,11.92,26.5,23.51,"$GPRMC,192453,A,4530.6179,N,07334.1567,W,000.0,354.8,300524,014.7,W","$GPGGA,192453,4530.6179,N,07334.1567,W,1,06,1.2,65.1,M,-32.8,M,,",45,30.62,-73,-34.16,0,354.8,-14.7,1,6,65.1,7999,0.853,10,7999,1
"2024-05-30 19:24:55",2684,11.92,26.5,23.5,"$GPRMC,192454,A,4530.6172,N,07334.1560,W,000.0,354.8,300524,014.7,W","$GPGGA,192454,4530.6172,N,07334.1560,W,1,06,1.2,65.2,M,-32.8,M,,",45,30.62,-73,-34.16,0,354.8,-14.7,1,6,65.2,7999,0.867,10,7999,1
"2024-05-30 19:24:56",2685,11.92,26.51,23.5,"$GPRMC,192455,A,4530.6168,N,07334.1555,W,000.0,354.8,300524,014.7,W","$GPGGA,192455,4530.6168,N,07334.1555,W,1,06,1.3,65.3,M,-32.8,M,,",45,30.62,-73,-34.16,0,354.8,-14.7,1,6,65.3,7999,0.877,10,7999,1
"2024-05-30 19:24:57",2686,11.92,26.52,23.5,"$GPRMC,192456,A,4530.6166,N,07334.1555,W,000.0,354.8,300524,014.7,W","$GPGGA,192456,4530.6166,N,07334.1555,W,1,05,1.3,65.4,M,-32.8,M,,",45,30.62,-73,-34.16,0,354.8,-14.7,1,5,65.4,7999,0.869,10,7999,1
"2024-05-30 19:24:58",2687,11.92,26.49,23.51,"$GPRMC,192457,A,4530.6162,N,07334.1552,W,000.0,354.8,300524,014.7,W","$GPGGA,192457,4530.6162,N,07334.1552,W,1,06,1.3,65.5,M,-32.8,M,,",45,30.62,-73,-34.16,0,354.8,-14.7,1,6,65.5,7999,0.861,10,7999,1
"2024-05-30 19:24:59",2688,11.92,26.5,23.5,"$GPRMC,192458,A,4530.6155,N,07334.1556,W,000.0,354.8,300524,014.7,W","$GPGGA,192458,4530.6155,N,07334.1556,W,1,05,1.4,65.7,M,-32.8,M,,",45,30.62,-73,-34.16,0,354.8,-14.7,1,5,65.7,7999,0.865,10,7999,1
"2024-05-30 19:25:00",2689,11.92,26.51,23.5,"$GPRMC,192459,A,4530.6147,N,07334.1562,W,000.0,354.8,300524,014.7,W","$GPGGA,192459,4530.6147,N,07334.1562,W,1,05,1.4,65.8,M,-32.8,M,,",45,30.61,-73,-34.16,0,354.8,-14.7,1,5,65.8,7999,0.873,10,7999,1
"2024-05-30 19:25:01",2690,11.92,26.5,23.5,"$GPRMC,192500,A,4530.6145,N,07334.1565,W,000.0,354.8,300524,014.7,W","$GPGGA,192500,4530.6145,N,07334.1565,W,1,05,1.4,65.9,M,-32.8,M,,",45,30.61,-73,-34.16,0,354.8,-14.7,1,5,65.9,7999,0.887,10,7999,1
"2024-05-30 19:25:02",2691,11.92,26.51,23.49,"$GPRMC,192501,A,4530.6145,N,07334.1569,W,000.0,354.8,300524,014.7,W","$GPGGA,192501,4530.6145,N,07334.1569,W,1,05,1.4,65.9,M,-32.8,M,,",45,30.61,-73,-34.16,0,354.8,-14.7,1,5,65.9,7999,0.913,10,7999,1
"2024-05-30 19:25:03",2692,11.92,26.5,23.5,"$GPRMC,192502,A,4530.6146,N,07334.1572,W,000.0,354.8,300524,014.7,W","$GPGGA,192502,4530.6146,N,07334.1572,W,1,05,1.4,65.9,M,-32.8,M,,",45,30.61,-73,-34.16,0,354.8,-14.7,1,5,65.9,7999,0.905,10,7999,1
"2024-05-30 19:25:04",2693,11.92,26.51,23.49,"$GPRMC,192503,A,4530.6144,N,07334.1573,W,000.0,354.8,300524,014.7,W","$GPGGA,192503,4530.6144,N,07334.1573,W,1,05,1.4,65.9,M,-32.8,M,,",45,30.61,-73,-34.16,0,354.8,-14.7,1,5,65.9,7999,0.881,10,7999,1
"2024-05-30 19:25:05",2694,11.92,26.51,23.51,"$GPRMC,192504,A,4530.6141,N,07334.1575,W,000.0,354.8,300524,014.7,W","$GPGGA,192504,4530.6141,N,07334.1575,W,1,05,1.4,65.9,M,-32.8,M,,",45,30.61,-73,-34.16,0,354.8,-14.7,1,5,65.9,0,0.905,10,7999,1
"2024-05-30 19:25:06",2695,11.93,26.5,23.51,"$GPRMC,192505,A,4530.6134,N,07334.1578,W,000.0,354.8,300524,014.7,W","$GPGGA,192505,4530.6134,N,07334.1578,W,1,05,1.4,66.0,M,-32.8,M,,",45,30.61,-73,-34.16,0,354.8,-14.7,1,5,66,0,0.875,10,7999,1
"2024-05-30 19:25:07",2696,11.93,26.5,23.5,"$GPRMC,192506,A,4530.6126,N,07334.1581,W,000.0,354.8,300524,014.7,W","$GPGGA,192506,4530.6126,N,07334.1581,W,1,05,1.4,66.1,M,-32.8,M,,",45,30.61,-73,-34.16,0,354.8,-14.7,1,5,66.1,0,0.865,10,7999,1
"2024-05-30 19:25:08",2697,11.92,26.51,23.51,"$GPRMC,192507,A,4530.6118,N,07334.1579,W,000.0,354.8,300524,014.7,W","$GPGGA,192507,4530.6118,N,07334.1579,W,1,05,1.4,66.1,M,-32.8,M,,",45,30.61,-73,-34.16,0,354.8,-14.7,1,5,66.1,0,0.877,10,7999,1
"2024-05-30 19:25:09",2698,11.92,26.5,23.5,"$GPRMC,192508,A,4530.6112,N,07334.1575,W,000.0,354.8,300524,014.7,W","$GPGGA,192508,4530.6112,N,07334.1575,W,1,04,1.7,66.2,M,-32.8,M,,",45,30.61,-73,-34.16,0,354.8,-14.7,1,4,66.2,0,0.865,10,7999,1
"2024-05-30 19:25:10",2699,11.93,26.5,23.51,"$GPRMC,192509,A,4530.6109,N,07334.1575,W,000.0,354.8,300524,014.7,W","$GPGGA,192509,4530.6109,N,07334.1575,W,1,04,1.7,66.3,M,-32.8,M,,",45,30.61,-73,-34.16,0,354.8,-14.7,1,4,66.3,0,0.907,10,7999,1
"2024-05-30 19:25:11",2700,11.92,26.51,23.5,"$GPRMC,192510,A,4530.6106,N,07334.1577,W,000.0,354.8,300524,014.7,W","$GPGGA,192510,4530.6106,N,07334.1577,W,1,04,1.7,66.4,M,-32.8,M,,",45,30.61,-73,-34.16,0,354.8,-14.7,1,4,66.4,0,0.899,10,7999,1
"2024-05-30 19:25:12",2701,11.93,26.51,23.5,"$GPRMC,192511,A,4530.6100,N,07334.1576,W,000.0,354.8,300524,014.7,W","$GPGGA,192511,4530.6100,N,07334.1576,W,1,04,1.7,66.5,M,-32.8,M,,",45,30.61,-73,-34.16,0,354.8,-14.7,1,4,66.5,0,0.909,10,7999,1
"2024-05-30 19:25:13",2702,11.92,26.51,23.5,"$GPRMC,192512,A,4530.6096,N,07334.1576,W,000.0,354.8,300524,014.7,W","$GPGGA,192512,4530.6096,N,07334.1576,W,1,04,1.7,66.5,M,-32.8,M,,",45,30.61,-73,-34.16,0,354.8,-14.7,1,4,66.5,0,0.905,10,7999,1
"2024-05-30 19:25:14",2703,11.93,26.51,23.5,"$GPRMC,192513,A,4530.6093,N,07334.1573,W,000.0,354.8,300524,014.7,W","$GPGGA,192513,4530.6093,N,07334.1573,W,1,04,1.7,66.6,M,-32.8,M,,",45,30.61,-73,-34.16,0,354.8,-14.7,1,4,66.6,0,0.895,10,7999,1
"2024-05-30 19:25:15",2704,11.92,26.63,23.51,"$GPRMC,192514,A,4530.6088,N,07334.1568,W,000.0,354.8,300524,014.7,W","$GPGGA,192514,4530.6088,N,07334.1568,W,1,04,1.7,66.6,M,-32.8,M,,",45,30.61,-73,-34.16,0,354.8,-14.7,1,4,66.6,0,0.911,10,7999,1
"2024-05-30 19:25:16",2705,11.93,26.51,23.51,"$GPRMC,192515,A,4530.6085,N,07334.1565,W,000.0,354.8,300524,014.7,W","$GPGGA,192515,4530.6085,N,07334.1565,W,1,04,1.7,66.6,M,-32.8,M,,",45,30.61,-73,-34.16,0,354.8,-14.7,1,4,66.6,0,0.909,10,7999,1
"2024-05-30 19:25:17",2706,11.92,26.51,23.51,"$GPRMC,192516,A,4530.6082,N,07334.1561,W,000.0,354.8,300524,014.7,W","$GPGGA,192516,4530.6082,N,07334.1561,W,1,04,1.7,66.7,M,-32.8,M,,",45,30.61,-73,-34.16,0,354.8,-14.7,1,4,66.7,0,0.909,10,7999,1
"2024-05-30 19:25:18",2707,11.92,26.51,23.51,"$GPRMC,192517,A,4530.6078,N,07334.1557,W,000.0,354.8,300524,014.7,W","$GPGGA,192517,4530.6078,N,07334.1557,W,1,04,1.7,66.7,M,-32.8,M,,",45,30.61,-73,-34.16,0,354.8,-14.7,1,4,66.7,0,0.909,10,7999,1
"2024-05-30 19:25:19",2708,11.92,26.52,23.51,"$GPRMC,192518,A,4530.6074,N,07334.1555,W,000.0,354.8,300524,014.7,W","$GPGGA,192518,4530.6074,N,07334.1555,W,1,04,1.7,66.7,M,-32.8,M,,",45,30.61,-73,-34.16,0,354.8,-14.7,1,4,66.7,0,0.879,10,7999,1
"2024-05-30 19:25:20",2709,11.92,26.52,23.52,"$GPRMC,192519,A,4530.6070,N,07334.1551,W,000.0,354.8,300524,014.7,W","$GPGGA,192519,4530.6070,N,07334.1551,W,1,04,1.7,66.8,M,-32.8,M,,",45,30.61,-73,-34.16,0,354.8,-14.7,1,4,66.8,0,0.893,10,7999,1
"2024-05-30 19:25:21",2710,11.93,26.52,23.52,"$GPRMC,192520,A,4530.6065,N,07334.1546,W,000.0,354.8,300524,014.7,W","$GPGGA,192520,4530.6065,N,07334.1546,W,1,04,1.7,66.8,M,-32.8,M,,",45,30.61,-73,-34.15,0,354.8,-14.7,1,4,66.8,0,0.909,10,7999,1
"2024-05-30 19:25:22",2711,11.92,26.52,23.52,"$GPRMC,192521,A,4530.6062,N,07334.1540,W,000.0,354.8,300524,014.7,W","$GPGGA,192521,4530.6062,N,07334.1540,W,1,04,1.7,66.8,M,-32.8,M,,",45,30.61,-73,-34.15,0,354.8,-14.7,1,4,66.8,0,0.899,10,7999,1
"2024-05-30 19:25:23",2712,11.92,26.52,23.52,"$GPRMC,192522,A,4530.6058,N,07334.1533,W,000.0,354.8,300524,014.7,W","$GPGGA,192522,4530.6058,N,07334.1533,W,1,04,1.7,66.8,M,-32.8,M,,",45,30.61,-73,-34.15,0,354.8,-14.7,1,4,66.8,0,0.909,10,7999,1
"2024-05-30 19:25:24",2713,11.92,26.49,23.51,"$GPRMC,192523,A,4530.6055,N,07334.1527,W,000.0,354.8,300524,014.7,W","$GPGGA,192523,4530.6055,N,07334.1527,W,1,04,1.7,66.8,M,-32.8,M,,",45,30.61,-73,-34.15,0,354.8,-14.7,1,4,66.8,0,0.9,10,7999,1
"2024-05-30 19:25:25",2714,11.92,26.51,23.52,"$GPRMC,192524,A,4530.6053,N,07334.1523,W,000.0,354.8,300524,014.7,W","$GPGGA,192524,4530.6053,N,07334.1523,W,1,04,1.7,66.8,M,-32.8,M,,",45,30.61,-73,-34.15,0,354.8,-14.7,1,4,66.8,0,0.899,10,7999,1
"2024-05-30 19:25:26",2715,11.92,26.5,23.52,"$GPRMC,192525,A,4530.6050,N,07334.1519,W,000.0,354.8,300524,014.7,W","$GPGGA,192525,4530.6050,N,07334.1519,W,1,04,1.7,66.8,M,-32.8,M,,",45,30.61,-73,-34.15,0,354.8,-14.7,1,4,66.8,0,0.915,10,7999,1
"2024-05-30 19:25:27",2716,11.92,26.5,23.52,"$GPRMC,192526,A,4530.6049,N,07334.1513,W,000.0,354.8,300524,014.7,W","$GPGGA,192526,4530.6049,N,07334.1513,W,1,04,1.7,66.8,M,-32.8,M,,",45,30.6,-73,-34.15,0,354.8,-14.7,1,4,66.8,0,0.909,10,7999,1
"2024-05-30 19:25:28",2717,11.92,26.51,23.52,"$GPRMC,192527,A,4530.6048,N,07334.1507,W,000.0,354.8,300524,014.7,W","$GPGGA,192527,4530.6048,N,07334.1507,W,1,04,1.7,66.8,M,-32.8,M,,",45,30.6,-73,-34.15,0,354.8,-14.7,1,4,66.8,0,0.897,10,7999,1
"2024-05-30 19:25:29",2718,11.92,26.66,23.52,"$GPRMC,192528,A,4530.6047,N,07334.1504,W,000.0,354.8,300524,014.7,W","$GPGGA,192528,4530.6047,N,07334.1504,W,1,04,1.7,66.7,M,-32.8,M,,",45,30.6,-73,-34.15,0,354.8,-14.7,1,4,66.7,0,0.893,10,7999,1
"2024-05-30 19:25:30",2719,11.93,26.52,23.52,"$GPRMC,192529,A,4530.6046,N,07334.1501,W,000.0,354.8,300524,014.7,W","$GPGGA,192529,4530.6046,N,07334.1501,W,1,04,1.7,66.7,M,-32.8,M,,",45,30.6,-73,-34.15,0,354.8,-14.7,1,4,66.7,0,0.909,10,7999,1
"2024-05-30 19:25:31",2720,11.92,26.51,23.52,"$GPRMC,192530,A,4530.6044,N,07334.1500,W,000.0,354.8,300524,014.7,W","$GPGGA,192530,4530.6044,N,07334.1500,W,1,04,1.7,66.7,M,-32.8,M,,",45,30.6,-73,-34.15,0,354.8,-14.7,1,4,66.7,0,0.919,10,7999,1
"2024-05-30 19:25:32",2721,11.92,26.52,23.5,"$GPRMC,192531,A,4530.6042,N,07334.1498,W,000.0,354.8,300524,014.7,W","$GPGGA,192531,4530.6042,N,07334.1498,W,1,04,1.7,66.7,M,-32.8,M,,",45,30.6,-73,-34.15,0,354.8,-14.7,1,4,66.7,0,0.899,10,7999,1
"2024-05-30 19:25:33",2722,11.92,26.51,23.52,"$GPRMC,192532,A,4530.6041,N,07334.1500,W,000.0,354.8,300524,014.7,W","$GPGGA,192532,4530.6041,N,07334.1500,W,1,05,1.4,66.6,M,-32.8,M,,",45,30.6,-73,-34.15,0,354.8,-14.7,1,5,66.6,0,0.903,10,7999,1
"2024-05-30 19:25:34",2723,11.92,26.52,23.52,"$GPRMC,192533,A,4530.6041,N,07334.1501,W,000.0,354.8,300524,014.7,W","$GPGGA,192533,4530.6041,N,07334.1501,W,1,05,1.4,66.6,M,-32.8,M,,",45,30.6,-73,-34.15,0,354.8,-14.7,1,5,66.6,0,0.887,10,7999,1
"2024-05-30 19:25:35",2724,11.92,26.51,23.53,"$GPRMC,192534,A,4530.6041,N,07334.1504,W,000.0,354.8,300524,014.7,W","$GPGGA,192534,4530.6041,N,07334.1504,W,1,05,1.4,66.7,M,-32.8,M,,",45,30.6,-73,-34.15,0,354.8,-14.7,1,5,66.7,0,0.909,10,7999,1
"2024-05-30 19:25:36",2725,11.92,26.51,23.53,"$GPRMC,192535,A,4530.6042,N,07334.1510,W,000.0,354.8,300524,014.7,W","$GPGGA,192535,4530.6042,N,07334.1510,W,1,05,1.4,66.7,M,-32.8,M,,",45,30.6,-73,-34.15,0,354.8,-14.7,1,5,66.7,0,0.911,10,7999,1
"2024-05-30 19:25:37",2726,11.92,26.52,23.53,"$GPRMC,192536,A,4530.6043,N,07334.1517,W,000.0,354.8,300524,014.7,W","$GPGGA,192536,4530.6043,N,07334.1517,W,1,05,1.4,66.7,M,-32.8,M,,",45,30.6,-73,-34.15,0,354.8,-14.7,1,5,66.7,0,0.881,10,7999,1
"2024-05-30 19:25:38",2727,11.92,26.52,23.53,"$GPRMC,192537,A,4530.6044,N,07334.1524,W,000.0,354.8,300524,014.7,W","$GPGGA,192537,4530.6044,N,07334.1524,W,1,05,1.4,66.8,M,-32.8,M,,",45,30.6,-73,-34.15,0,354.8,-14.7,1,5,66.8,0,0.901,10,7999,1
"2024-05-30 19:25:39",2728,11.92,26.52,23.53,"$GPRMC,192538,A,4530.6045,N,07334.1534,W,000.0,354.8,300524,014.7,W","$GPGGA,192538,4530.6045,N,07334.1534,W,1,05,1.4,66.9,M,-32.8,M,,",45,30.6,-73,-34.15,0,354.8,-14.7,1,5,66.9,0,0.889,10,7999,1
"2024-05-30 19:25:40",2729,11.92,26.52,23.53,"$GPRMC,192539,A,4530.6045,N,07334.1540,W,000.0,354.8,300524,014.7,W","$GPGGA,192539,4530.6045,N,07334.1540,W,1,05,1.8,66.9,M,-32.8,M,,",45,30.6,-73,-34.15,0,354.8,-14.7,1,5,66.9,0,0.905,10,7999,1
"2024-05-30 19:25:41",2730,11.92,26.52,23.51,"$GPRMC,192540,A,4530.6044,N,07334.1543,W,000.0,354.8,300524,014.7,W","$GPGGA,192540,4530.6044,N,07334.1543,W,1,05,1.8,67.0,M,-32.8,M,,",45,30.6,-73,-34.15,0,354.8,-14.7,1,5,67,0,0.905,10,7999,1
"2024-05-30 19:25:42",2731,11.92,26.52,23.53,"$GPRMC,192541,A,4530.6044,N,07334.1551,W,000.0,354.8,300524,014.7,W","$GPGGA,192541,4530.6044,N,07334.1551,W,1,05,1.8,67.2,M,-32.8,M,,",45,30.6,-73,-34.16,0,354.8,-14.7,1,5,67.2,0,0.913,10,7999,1
"2024-05-30 19:25:43",2732,11.92,26.51,23.53,"$GPRMC,192542,A,4530.6041,N,07334.1556,W,000.0,354.8,300524,014.7,W","$GPGGA,192542,4530.6041,N,07334.1556,W,1,05,1.8,67.3,M,-32.8,M,,",45,30.6,-73,-34.16,0,354.8,-14.7,1,5,67.3,0,0.903,10,7999,1
"2024-05-30 19:25:44",2733,11.92,26.53,23.52,"$GPRMC,192543,A,4530.6042,N,07334.1561,W,000.0,354.8,300524,014.7,W","$GPGGA,192543,4530.6042,N,07334.1561,W,1,05,1.4,67.4,M,-32.8,M,,",45,30.6,-73,-34.16,0,354.8,-14.7,1,5,67.4,0,0.895,10,7999,1
"2024-05-30 19:25:45",2734,11.92,26.52,23.53,"$GPRMC,192544,A,4530.6042,N,07334.1567,W,000.0,354.8,300524,014.7,W","$GPGGA,192544,4530.6042,N,07334.1567,W,1,05,1.8,67.5,M,-32.8,M,,",45,30.6,-73,-34.16,0,354.8,-14.7,1,5,67.5,0,0.903,10,7999,1
"2024-05-30 19:25:46",2735,11.92,26.52,23.56,"$GPRMC,192545,A,4530.6043,N,07334.1571,W,000.0,354.8,300524,014.7,W","$GPGGA,192545,4530.6043,N,07334.1571,W,1,05,1.8,67.6,M,-32.8,M,,",45,30.6,-73,-34.16,0,354.8,-14.7,1,5,67.6,0,0.907,10,7999,1
"2024-05-30 19:25:47",2736,11.92,26.53,23.53,"$GPRMC,192546,A,4530.6044,N,07334.1577,W,000.0,354.8,300524,014.7,W","$GPGGA,192546,4530.6044,N,07334.1577,W,1,05,1.4,67.7,M,-32.8,M,,",45,30.6,-73,-34.16,0,354.8,-14.7,1,5,67.7,0,0.915,10,7999,1
"2024-05-30 19:25:48",2737,11.93,26.53,23.54,"$GPRMC,192547,A,4530.6046,N,07334.1582,W,000.0,354.8,300524,014.7,W","$GPGGA,192547,4530.6046,N,07334.1582,W,1,05,1.4,67.8,M,-32.8,M,,",45,30.6,-73,-34.16,0,354.8,-14.7,1,5,67.8,0,0.905,10,7999,1
"2024-05-30 19:25:49",2738,11.92,26.52,23.55,"$GPRMC,192548,A,4530.6047,N,07334.1592,W,000.0,354.8,300524,014.7,W","$GPGGA,192548,4530.6047,N,07334.1592,W,1,05,1.4,68.1,M,-32.8,M,,",45,30.6,-73,-34.16,0,354.8,-14.7,1,5,68.1,0,0.891,10,7999,1
"2024-05-30 19:25:50",2739,11.93,26.53,23.57,"$GPRMC,192549,A,4530.6045,N,07334.1598,W,000.0,354.8,300524,014.7,W","$GPGGA,192549,4530.6045,N,07334.1598,W,1,05,1.4,68.2,M,-32.8,M,,",45,30.6,-73,-34.16,0,354.8,-14.7,1,5,68.2,0,0.881,10,7999,1
"2024-05-30 19:25:51",2740,11.92,26.57,23.56,"$GPRMC,192550,A,4530.6046,N,07334.1604,W,000.0,354.8,300524,014.7,W","$GPGGA,192550,4530.6046,N,07334.1604,W,1,05,1.4,68.3,M,-32.8,M,,",45,30.6,-73,-34.16,0,354.8,-14.7,1,5,68.3,0,0.905,10,7999,1
"2024-05-30 19:25:52",2741,11.92,26.54,23.57,"$GPRMC,192551,A,4530.6047,N,07334.1609,W,000.0,354.8,300524,014.7,W","$GPGGA,192551,4530.6047,N,07334.1609,W,1,05,1.4,68.3,M,-32.8,M,,",45,30.6,-73,-34.16,0,354.8,-14.7,1,5,68.3,0,0.917,10,7999,1
"2024-05-30 19:25:53",2742,11.92,26.51,23.59,"$GPRMC,192552,A,4530.6046,N,07334.1613,W,000.0,354.8,300524,014.7,W","$GPGGA,192552,4530.6046,N,07334.1613,W,1,05,1.4,68.3,M,-32.8,M,,",45,30.6,-73,-34.16,0,354.8,-14.7,1,5,68.3,0,0.899,10,7999,1
"2024-05-30 19:25:54",2743,11.92,26.52,23.6,"$GPRMC,192553,A,4530.6046,N,07334.1618,W,000.0,354.8,300524,014.7,W","$GPGGA,192553,4530.6046,N,07334.1618,W,1,05,1.4,68.4,M,-32.8,M,,",45,30.6,-73,-34.16,0,354.8,-14.7,1,5,68.4,0,0.891,10,7999,1
"2024-05-30 19:25:55",2744,11.93,26.53,23.61,"$GPRMC,192554,A,4530.6045,N,07334.1622,W,000.0,354.8,300524,014.7,W","$GPGGA,192554,4530.6045,N,07334.1622,W,1,05,1.4,68.4,M,-32.8,M,,",45,30.6,-73,-34.16,0,354.8,-14.7,1,5,68.4,0,0.917,10,7999,1
"2024-05-30 19:25:56",2745,11.93,26.52,23.61,"$GPRMC,192555,A,4530.6045,N,07334.1624,W,000.0,354.8,300524,014.7,W","$GPGGA,192555,4530.6045,N,07334.1624,W,1,05,1.4,68.4,M,-32.8,M,,",45,30.6,-73,-34.16,0,354.8,-14.7,1,5,68.4,0,0.917,10,7999,1
"2024-05-30 19:25:57",2746,11.92,26.53,23.61,"$GPRMC,192556,A,4530.6046,N,07334.1626,W,000.0,354.8,300524,014.7,W","$GPGGA,192556,4530.6046,N,07334.1626,W,1,05,1.4,68.5,M,-32.8,M,,",45,30.6,-73,-34.16,0,354.8,-14.7,1,5,68.5,0,0.907,10,7999,1
"2024-05-30 19:25:58",2747,11.93,26.53,23.62,"$GPRMC,192557,A,4530.6047,N,07334.1626,W,000.0,354.8,300524,014.7,W","$GPGGA,192557,4530.6047,N,07334.1626,W,1,05,1.4,68.5,M,-32.8,M,,",45,30.6,-73,-34.16,0,354.8,-14.7,1,5,68.5,0,0.909,10,7999,1
"2024-05-30 19:25:59",2748,11.93,26.54,23.63,"$GPRMC,192558,A,4530.6045,N,07334.1629,W,000.0,354.8,300524,014.7,W","$GPGGA,192558,4530.6045,N,07334.1629,W,1,05,1.4,68.6,M,-32.8,M,,",45,30.6,-73,-34.16,0,354.8,-14.7,1,5,68.6,0,0.899,10,7999,1
"2024-05-30 19:26:00",2749,11.92,26.53,23.62,"$GPRMC,192559,A,4530.6044,N,07334.1628,W,000.0,354.8,300524,014.7,W","$GPGGA,192559,4530.6044,N,07334.1628,W,1,05,1.4,68.7,M,-32.8,M,,",45,30.6,-73,-34.16,0,354.8,-14.7,1,5,68.7,0,0.903,10,7999,1
"2024-05-30 19:26:01",2750,11.92,26.52,23.6,"$GPRMC,192600,A,4530.6045,N,07334.1629,W,000.0,354.8,300524,014.7,W","$GPGGA,192600,4530.6045,N,07334.1629,W,1,05,1.4,68.8,M,-32.8,M,,",45,30.6,-73,-34.16,0,354.8,-14.7,1,5,68.8,0,0.907,10,7999,1
"2024-05-30 19:26:02",2751,11.92,26.54,23.61,"$GPRMC,192601,A,4530.6048,N,07334.1628,W,000.0,354.8,300524,014.7,W","$GPGGA,192601,4530.6048,N,07334.1628,W,1,05,1.4,68.8,M,-32.8,M,,",45,30.6,-73,-34.16,0,354.8,-14.7,1,5,68.8,0,0.901,10,7999,1
"2024-05-30 19:26:03",2752,11.92,26.52,23.62,"$GPRMC,192602,A,4530.6050,N,07334.1628,W,000.0,354.8,300524,014.7,W","$GPGGA,192602,4530.6050,N,07334.1628,W,1,05,1.4,68.9,M,-32.8,M,,",45,30.61,-73,-34.16,0,354.8,-14.7,1,5,68.9,0,0.897,10,7999,1
"2024-05-30 19:26:04",2753,11.93,26.53,23.62,"$GPRMC,192603,A,4530.6054,N,07334.1627,W,000.0,354.8,300524,014.7,W","$GPGGA,192603,4530.6054,N,07334.1627,W,1,05,1.4,68.9,M,-32.8,M,,",45,30.61,-73,-34.16,0,354.8,-14.7,1,5,68.9,0,0.893,10,7999,1
"2024-05-30 19:26:05",2754,11.93,26.53,23.61,"$GPRMC,192604,A,4530.6057,N,07334.1628,W,000.0,354.8,300524,014.7,W","$GPGGA,192604,4530.6057,N,07334.1628,W,1,05,1.4,68.9,M,-32.8,M,,",45,30.61,-73,-34.16,0,354.8,-14.7,1,5,68.9,0,0.909,10,7999,1
"2024-05-30 19:26:06",2755,11.93,26.53,23.6,"$GPRMC,192605,A,4530.6060,N,07334.1629,W,000.0,354.8,300524,014.7,W","$GPGGA,192605,4530.6060,N,07334.1629,W,1,05,1.4,68.9,M,-32.8,M,,",45,30.61,-73,-34.16,0,354.8,-14.7,1,5,68.9,0,0.921,10,7999,1
"2024-05-30 19:26:07",2756,11.93,26.53,23.59,"$GPRMC,192606,A,4530.6061,N,07334.1632,W,000.0,354.8,300524,014.7,W","$GPGGA,192606,4530.6061,N,07334.1632,W,1,05,1.4,69.0,M,-32.8,M,,",45,30.61,-73,-34.16,0,354.8,-14.7,1,5,69,0,0.899,10,7999,1
"2024-05-30 19:26:08",2757,11.93,26.64,23.59,"$GPRMC,192607,A,4530.6059,N,07334.1635,W,000.0,354.8,300524,014.7,W","$GPGGA,192607,4530.6059,N,07334.1635,W,1,05,1.4,69.0,M,-32.8,M,,",45,30.61,-73,-34.16,0,354.8,-14.7,1,5,69,0,0.897,10,7999,1
"2024-05-30 19:26:09",2758,11.93,26.54,23.58,"$GPRMC,192608,A,4530.6058,N,07334.1639,W,000.0,354.8,300524,014.7,W","$GPGGA,192608,4530.6058,N,07334.1639,W,1,05,1.4,69.0,M,-32.8,M,,",45,30.61,-73,-34.16,0,354.8,-14.7,1,5,69,0,0.891,10,7999,1
